{
"type": "FeatureCollection",
"name": "Munich-Intro",
"features": [
{ "type": "Feature", "properties": { "Latitude": 48.137245, "Longitude": 11.57551, "Name": "Marienplatz", "MustSee": true, "Number": 8, "Type": "Landmark", "Address": "Marienplatz, 80331 München", "Hours": null }, "geometry": { "type": "Point", "coordinates": [ 11.57551, 48.137245 ] } },
{ "type": "Feature", "properties": { "Latitude": 48.137665, "Longitude": 11.579815, "Name": "Hofbräuhaus", "MustSee": true, "Number": 10, "Type": "Food", "Address": "Platzl 9, 80331 München", "Hours": "Mo-Su 09:00-24:00", "Website": "https://www.hofbraeuhaus.de/de/willkommen.html", "Phone": "+49 89 290136 129" }, "geometry": { "type": "Point", "coordinates": [ 11.579815, 48.137665 ] } },
{ "type": "Feature", "properties": { "Latitude": 48.139152, "Longitude": 11.580089, "Name": "Maximilianstrasse", "MustSee": false, "Number": 11, "Type": "Landmark" }, "geometry": { "type": "Point", "coordinates": [ 11.580089, 48.139152 ] } },
{ "type": "Feature", "properties": { "Latitude": 48.140292, "Longitude": 11.578246, "Name": "Residenz München", "MustSee": true, "Number": 12, "Type": "Landmark", "Address": "Residenzstraße 1, 80333 München", "Website": "https://www.residenz-muenchen.de/", "Phone": "+49 89 29067-1" }, "geometry": { "type": "Point", "coordinates": [ 11.578246, 48.140292 ] } },
{ "type": "Feature", "properties": { "Latitude": 48.141756, "Longitude": 11.577346, "Name": "Feldherrnhalle", "MustSee": false, "Number": 13, "Type": "Landmark", "Address": "Residenzstraße 1, 80333 München", "Hours": "Open 24 hours" }, "geometry": { "type": "Point", "coordinates": [ 11.577346, 48.141756 ] } },
{ "type": "Feature", "properties": { "Latitude": 48.141978, "Longitude": 11.577134, "Name": "Theatine Church", "MustSee": false, "Number": 14, "Type": "Religious", "Address": "Salvatorplatz 2A, 80333 München", "Hours": "Mo-Su 07:00-20:00", "Website": "http://www.theatinerkirche.de/", "Phone": "+49 89 2106960" }, "geometry": { "type": "Point", "coordinates": [ 11.577134, 48.141978 ] } },
{ "type": "Feature", "properties": { "Latitude": 48.14236, "Longitude": 11.581422, "Name": "Hofgarten and War Memorial", "MustSee": false, "Number": 15, "Type": "Garden", "Address": "Hofgartenstraße 1, 80538 München", "Hours": "Open 24 hours", "Website": "http://www.muenchen.de/sehenswuerdigkeiten/orte/120231.html" }, "geometry": { "type": "Point", "coordinates": [ 11.581422, 48.14236 ] } },
{ "type": "Feature", "properties": { "Latitude": 48.144495, "Longitude": 11.583641, "Name": "Englischer Garden", "MustSee": true, "Number": 16, "Type": "Park", "Address": "Prinzregentenstraße, 80538 München", "Hours": "Open 24 hours", "Website": "https://www.muenchen.de/sehenswuerdigkeiten/orte/120242.html" }, "geometry": { "type": "Point", "coordinates": [ 11.583641, 48.144495 ] } },
{ "type": "Feature", "properties": { "Latitude": 48.137348, "Longitude": 11.576202, "Name": "Neues Rathaus", "MustSee": true, "Number": 9, "Type": "Landmark", "Hours": "Oct-Apr Mo-Fr 10:00-17:00; May-Sep 10:00-19:00" }, "geometry": { "type": "Point", "coordinates": [ 11.576202, 48.137348 ] } },
{ "type": "Feature", "properties": { "Latitude": 48.136663, "Longitude": 11.576848, "Name": "Altes Rathaus", "MustSee": false, "Number": 7, "Type": "Landmark", "Address": "Marienplatz 15, 80331 München" }, "geometry": { "type": "Point", "coordinates": [ 11.576848, 48.136663 ] } },
{ "type": "Feature", "properties": { "Latitude": 48.136503, "Longitude": 11.576054, "Name": "Peterskirche", "MustSee": true, "Number": 6, "Type": "Religious", "Address": "Rindermarkt 1, 80331 München", "Hours": "Mo-Su 07:30-19:00", "Website": "https://alterpeter.de/pfarrkirche-st-peter/", "Phone": "+49 89 210237 760" }, "geometry": { "type": "Point", "coordinates": [ 11.576054, 48.136503 ] } },
{ "type": "Feature", "properties": { "Latitude": 48.135146, "Longitude": 11.576256, "Name": "Viktualienmarkt", "MustSee": true, "Number": 5, "Type": "Shopping", "Address": "Viktualienmarkt 3, 80331 München", "Hours": "Mo-Sa 08:00-20:00", "Website": "https://www.viktualienmarkt-muenchen.de", "Phone": "+49 89 890682 05" }, "geometry": { "type": "Point", "coordinates": [ 11.576256, 48.135146 ] } },
{ "type": "Feature", "properties": { "Latitude": 48.135455, "Longitude": 11.572886, "Name": "Münchner Stadtmuseum", "MustSee": false, "Number": 4, "Type": "Museum", "Address": "Sankt-Jakobs-Platz 1, 80331 München", "Hours": "Tu-Su 10:00-18:00", "Website": "https://www.muenchner-stadtmuseum.de/", "Phone": "+49 89 233223 70" }, "geometry": { "type": "Point", "coordinates": [ 11.572886, 48.135455 ] } },
{ "type": "Feature", "properties": { "Latitude": 48.135184, "Longitude": 11.569654, "Name": "Asamkirche", "MustSee": false, "Number": 3, "Type": "Religious", "Address": "Sendlinger Str. 32, 80331 München", "Hours": "Mo-Su 09:00-18:00", "Website": "https://alterpeter.de/nebenkirchen/#asamkirche", "Phone": "+49 89236879 89" }, "geometry": { "type": "Point", "coordinates": [ 11.569654, 48.135184 ] } },
{ "type": "Feature", "properties": { "Latitude": 48.138169, "Longitude": 11.57152, "Name": "Kaufingerstrasse/Neuhauserstrasse", "MustSee": false, "Number": 2, "Type": "Shopping", "Hours": null, "Description": null, "Accessibility": null }, "geometry": { "type": "Point", "coordinates": [ 11.57152, 48.138169 ] } },
{ "type": "Feature", "properties": { "Latitude": 48.139185, "Longitude": 11.566191, "Name": "Karlsplatz", "MustSee": false, "Number": 1, "Type": "Landmark", "Address": "Karlsplatz 1, 80335 München", "Hours": "Open 24 hours", "Website": "https://www.muenchen.de/sehenswuerdigkeiten/orte/120328.html", "Description": null }, "geometry": { "type": "Point", "coordinates": [ 11.566191, 48.139185 ] } }
]
}
